{
  "LHR": { "lat": 51.470022, "lon": -0.454295, "name": "London Heathrow Airport" },
  "JFK": { "lat": 40.639751, "lon": -73.778925, "name": "John F. Kennedy International Airport" },
  "LAX": { "lat": 33.941589, "lon": -118.40853, "name": "Los Angeles International Airport" },
  "ORD": { "lat": 41.974162, "lon": -87.907321, "name": "O'Hare International Airport" },
  "ATL": { "lat": 33.640733, "lon": -84.4277, "name": "Hartsfield-Jackson Atlanta International Airport" },
  "DFW": { "lat": 32.899809, "lon": -97.040307, "name": "Dallas/Fort Worth International Airport" },
  "DEN": { "lat": 39.856096, "lon": -104.673738, "name": "Denver International Airport" },
  "SFO": { "lat": 37.621313, "lon": -122.378955, "name": "San Francisco International Airport" },
  "SEA": { "lat": 47.45025, "lon": -122.30881, "name": "Seattle-Tacoma International Airport" },
  "MIA": { "lat": 25.79325, "lon": -80.290556, "name": "Miami International Airport" },
  "BOS": { "lat": 42.364348, "lon": -71.005179, "name": "Boston Logan International Airport" },
  "IAD": { "lat": 38.953116, "lon": -77.456593, "name": "Washington Dulles International Airport" },
  "CDG": { "lat": 49.009724, "lon": 2.5479, "name": "Paris Charles de Gaulle Airport" },
  "AMS": { "lat": 52.310539, "lon": 4.768274, "name": "Amsterdam Airport Schiphol" },
  "FRA": { "lat": 50.037984, "lon": 8.562152, "name": "Frankfurt Airport" },
  "MAD": { "lat": 40.4983, "lon": -3.5676, "name": "Adolfo Suárez Madrid-Barajas Airport" },
  "FCO": { "lat": 41.800278, "lon": 12.238889, "name": "Leonardo da Vinci-Fiumicino Airport" },
  "MUC": { "lat": 48.353783, "lon": 11.786086, "name": "Munich Airport" },
  "ZRH": { "lat": 47.458056, "lon": 8.548056, "name": "Zurich Airport" },
  "VIE": { "lat": 48.110278, "lon": 16.569722, "name": "Vienna International Airport" },
  "DUB": { "lat": 53.421389, "lon": -6.270278, "name": "Dublin Airport" },
  "LIS": { "lat": 38.774167, "lon": -9.134167, "name": "Humberto Delgado Airport" },
  "BCN": { "lat": 41.297078, "lon": 2.078464, "name": "Josep Tarradellas Barcelona-El Prat Airport" },
  "IST": { "lat": 41.275, "lon": 28.7519, "name": "Istanbul Airport" },
  "DXB": { "lat": 25.2532, "lon": 55.3657, "name": "Dubai International Airport" },
  "DOH": { "lat": 25.261125, "lon": 51.565056, "name": "Hamad International Airport" },
  "AUH": { "lat": 24.432972, "lon": 54.651139, "name": "Zayed International Airport" },
  "SIN": { "lat": 1.36442, "lon": 103.991531, "name": "Singapore Changi Airport" },
  "HKG": { "lat": 22.308889, "lon": 113.914722, "name": "Hong Kong International Airport" },
  "NRT": { "lat": 35.776527, "lon": 140.386389, "name": "Narita International Airport" },
  "HND": { "lat": 35.552258, "lon": 139.779694, "name": "Haneda Airport" },
  "ICN": { "lat": 37.4602, "lon": 126.4406, "name": "Incheon International Airport" },
  "PEK": { "lat": 40.079857, "lon": 116.587044, "name": "Beijing Capital International Airport" },
  "PVG": { "lat": 31.143378, "lon": 121.805278, "name": "Shanghai Pudong International Airport" },
  "BKK": { "lat": 13.69, "lon": 100.7501, "name": "Suvarnabhumi Airport" },
  "KUL": { "lat": 2.745578, "lon": 101.709917, "name": "Kuala Lumpur International Airport" },
  "DEL": { "lat": 28.568728, "lon": 77.103099, "name": "Indira Gandhi International Airport" },
  "BOM": { "lat": 19.089559, "lon": 72.865614, "name": "Chhatrapati Shivaji Maharaj International Airport" },
  "BLR": { "lat": 13.198611, "lon": 77.706667, "name": "Kempegowda International Airport" },
  "MAA": { "lat": 12.994167, "lon": 80.180556, "name": "Chennai International Airport" },
  "HYD": { "lat": 17.240278, "lon": 78.429444, "name": "Rajiv Gandhi International Airport" },
  "CCU": { "lat": 22.654722, "lon": 88.446667, "name": "Netaji Subhash Chandra Bose International Airport" },
  "SYD": { "lat": -33.946111, "lon": 151.177222, "name": "Sydney Kingsford Smith Airport" },
  "MEL": { "lat": -37.673333, "lon": 144.843333, "name": "Melbourne Airport" },
  "BNE": { "lat": -27.384167, "lon": 153.1175, "name": "Brisbane Airport" },
  "AKL": { "lat": -37.008056, "lon": 174.791667, "name": "Auckland Airport" },
  "YYZ": { "lat": 43.677778, "lon": -79.624722, "name": "Toronto Pearson International Airport" },
  "YVR": { "lat": 49.193889, "lon": -123.184444, "name": "Vancouver International Airport" },
  "GRU": { "lat": -23.435556, "lon": -46.473056, "name": "São Paulo/Guarulhos International Airport" },
  "EZE": { "lat": -34.822222, "lon": -58.535833, "name": "Ministro Pistarini International Airport" },
  "SCL": { "lat": -33.393056, "lon": -70.785833, "name": "Arturo Merino Benítez International Airport" },
  "BOG": { "lat": 4.701667, "lon": -74.146944, "name": "El Dorado International Airport" },
  "MEX": { "lat": 19.436111, "lon": -99.071944, "name": "Mexico City International Airport" },
  "JNB": { "lat": -26.139167, "lon": 28.246, "name": "O. R. Tambo International Airport" },
  "CAI": { "lat": 30.121944, "lon": 31.405556, "name": "Cairo International Airport" },
  "LOS": { "lat": 6.577378, "lon": 3.321158, "name": "Murtala Muhammed International Airport" },
  "NBO": { "lat": -1.319167, "lon": 36.9275, "name": "Jomo Kenyatta International Airport" },
  "CPT": { "lat": -33.978333, "lon": 18.601667, "name": "Cape Town International Airport" },
  "ARN": { "lat": 59.651944, "lon": 17.918611, "name": "Stockholm Arlanda Airport" },
  "OSL": { "lat": 60.193889, "lon": 11.100278, "name": "Oslo Airport Gardermoen" }
}
